[
  {
    "gymId": "1",
    "gymName": "Volleybollplanen",
    "gymInfo": {
      "gymDescription": "",
      "latitude": 55.475677,
      "longitude": 13.030866
    }
  },
  {
    "gymId": "10",
    "gymName": "Vellinge Kyrka",
    "gymInfo": {
      "gymDescription": "",
      "latitude": 55.469319,
      "longitude": 13.018981
    }
  },
  {
    "gymId": "11",
    "gymName": "Outdoor Gym",
    "gymInfo": {
      "gymDescription": "",
      "latitude": 55.463218,
      "longitude": 13.013387
    }
  },
  {
    "gymId": "12",
    "gymName": "Södervångshallen",
    "gymInfo": {
      "gymDescription": "",
      "latitude": 55.461012,
      "longitude": 13.023735
    }
  },
  {
    "gymId": "13",
    "gymName": "The Pirates of Hököpinge",
    "gymInfo": {
      "gymDescription": "",
      "latitude": 55.491140,
      "longitude": 13.012023
    }
  },
  {
    "gymId": "14",
    "gymName": "High on Sugar",
    "gymInfo": {
      "gymDescription": "",
      "latitude": 55.496891,
      "longitude": 13.005441
    }
  },
  {
    "gymId": "15",
    "gymName": "Hököpinge Kyrka",
    "gymInfo": {
      "gymDescription": "",
      "latitude": 55.501794,
      "longitude": 13.031456
    }
  },
  {
    "gymId": "16",
    "gymName": "Hököpinge Krematorium",
    "gymInfo": {
      "gymDescription": "",
      "latitude": 55.501137,
      "longitude": 13.031588
    }
  },
  {
    "gymId": "17",
    "gymName": "Kyrka I Östra Grevie",
    "gymInfo": {
      "gymDescription": "",
      "latitude": 55.469066,
      "longitude": 13.135555
    }
  },
  {
    "gymId": "18",
    "gymName": "Västra Ingelstads Bibliotek",
    "gymInfo": {
      "gymDescription": "",
      "latitude": 55.494896,
      "longitude": 13.112335
    }
  },
  {
    "gymId": "19",
    "gymName": "Västra Ingelstad Sporthall",
    "gymInfo": {
      "gymDescription": "",
      "latitude": 55.494578,
      "longitude": 13.113194
    }
  },
  {
    "gymId": "2",
    "gymName": "Eskilstorps Kyrka",
    "gymInfo": {
      "gymDescription": "",
      "latitude": 55.480296,
      "longitude": 13.023337
    }
  },
  {
    "gymId": "20",
    "gymName": "Västra Ingelstad Station",
    "gymInfo": {
      "gymDescription": "",
      "latitude": 55.489640,
      "longitude": 13.109284
    }
  },
  {
    "gymId": "21",
    "gymName": "Testgym",
    "gymInfo": {
      "gymDescription": "",
      "latitude": 55.479485,
      "longitude": 13.028168
    }
  },
  {
    "gymId": "22",
    "gymName": "Wood Art",
    "gymInfo": {
      "gymDescription": "",
      "latitude": 55.439755,
      "longitude": 13.033349
    }
  },
  {
    "gymId": "23",
    "gymName": "Entrance To Vellinge Boule",
    "gymInfo": {
      "gymDescription": "",
      "latitude": 55.474003,
      "longitude": 13.029226
    }
  },
  {
    "gymId": "24",
    "gymName": "Vellinge Skatepark",
    "gymInfo": {
      "gymDescription": "",
      "latitude": 55.468819,
      "longitude": 13.011130
    }
  },
  {
    "gymId": "3",
    "gymName": "Horses Horses Horses",
    "gymInfo": {
      "gymDescription": "",
      "latitude": 55.477405,
      "longitude": 13.041995
    }
  },
  {
    "gymId": "4",
    "gymName": "Bilar Huller Om Buller",
    "gymInfo": {
      "gymDescription": "",
      "latitude": 55.472521,
      "longitude": 13.036140
    }
  },
  {
    "gymId": "5",
    "gymName": "Vellinge Water Tower",
    "gymInfo": {
      "gymDescription": "",
      "latitude": 55.473271,
      "longitude": 13.024203
    }
  },
  {
    "gymId": "6",
    "gymName": "Lekplats Gränsgatan",
    "gymInfo": {
      "gymDescription": "",
      "latitude": 55.472936,
      "longitude": 13.013320
    }
  },
  {
    "gymId": "7",
    "gymName": "Lovers at the City Council",
    "gymInfo": {
      "gymDescription": "",
      "latitude": 55.469606,
      "longitude": 13.013788
    }
  },
  {
    "gymId": "8",
    "gymName": "Livets Blad",
    "gymInfo": {
      "gymDescription": "",
      "latitude": 55.471138,
      "longitude": 13.020816
    }
  },
  {
    "gymId": "9",
    "gymName": "Gamla Tullkammaren",
    "gymInfo": {
      "gymDescription": "",
      "latitude": 55.469530,
      "longitude": 13.021092
    }
  }
]